{
  "salesman_name": "Anthony Aguilar",
  "details": [
    {
      "id": 65351,
      "client_name": "ABT. Y CARN. NVO. AEROPUERTO",
      "client_db_ref": "MIGC0717",
      "created_date": "2020-04-01 10:36:31.606",
      "latitude": "9.094463",
      "longitude": "-79.352911",
      "activity_name": "VENTA",
      "total": "143.15",
      "motive_text": null,
      "has_allowed_location": true,
      "total_count": 231
    },
    {
      "id": 65399,
      "client_name": "M/S VICENTIN",
      "client_db_ref": "C00000000003271",
      "created_date": "2020-04-01 11:34:11.126",
      "latitude": "9.089141",
      "longitude": "-79.350586",
      "activity_name": "VENTA",
      "total": "27.96",
      "motive_text": null,
      "has_allowed_location": true,
      "total_count": 231
    },
    {
      "id": 65406,
      "client_name": "PANADERIA BOD. Y CARN. ILLUECA",
      "client_db_ref": "MIGC1648",
      "created_date": "2020-04-01 11:37:36.288",
      "latitude": "9.089141",
      "longitude": "-79.350586",
      "activity_name": "VENTA",
      "total": "15.301",
      "motive_text": null,
      "has_allowed_location": true,
      "total_count": 231
    },
    {
      "id": 65411,
      "client_name": "ABT. Y CARN. NVO. AEROPUERTO",
      "client_db_ref": "MIGC0717",
      "created_date": "2020-04-01 11:41:06.971",
      "latitude": "9.089141",
      "longitude": "-79.350586",
      "activity_name": "VENTA",
      "total": "104.71567432",
      "motive_text": null,
      "has_allowed_location": true,
      "total_count": 231
    },
    {
      "id": 65413,
      "client_name": "KIOSCO ARMANDITO",
      "client_db_ref": "MIGC0869",
      "created_date": "2020-04-01 11:43:09.707",
      "latitude": "9.089141",
      "longitude": "-79.350586",
      "activity_name": "VENTA",
      "total": "28.26406284",
      "motive_text": null,
      "has_allowed_location": true,
      "total_count": 231
    },
    {
      "id": 65453,
      "client_name": "MINI SUPER MIRADOR AEROPUERTO",
      "client_db_ref": "MIGC1500",
      "created_date": "2020-04-01 13:05:32.141",
      "latitude": "9.089141",
      "longitude": "-79.350586",
      "activity_name": "VENTA",
      "total": "82.60535856",
      "motive_text": null,
      "has_allowed_location": true,
      "total_count": 231
    },
    {
      "id": 65456,
      "client_name": "MINI SUPER MIRADOR AEROPUERTO",
      "client_db_ref": "MIGC1500",
      "created_date": "2020-04-01 13:27:31.101",
      "latitude": "9.094464",
      "longitude": "-79.352907",
      "activity_name": "VENTA",
      "total": "18.433344",
      "motive_text": null,
      "has_allowed_location": true,
      "total_count": 231
    },
    {
      "id": 65507,
      "client_name": "ORLYN, S.A. (TERPEL 24 DE DICIEMBRE) + (ACH)",
      "client_db_ref": "C00000000008526",
      "created_date": "2020-04-01 16:50:07.875",
      "latitude": "9.094465",
      "longitude": "-79.352905",
      "activity_name": "VENTA",
      "total": "123.84",
      "motive_text": null,
      "has_allowed_location": true,
      "total_count": 231
    },
    {
      "id": 27984,
      "client_name": "ABARROTERIA ROCA DE APOLLO",
      "client_db_ref": "MIGC0518",
      "created_date": "2020-04-02 09:19:37.258",
      "latitude": "9.093498",
      "longitude": "-79.377252",
      "activity_name": "NO VENTA",
      "total": null,
      "motive_text": "Ubicación de cliente",
      "has_allowed_location": true,
      "total_count": 231
    },
    {
      "id": 27986,
      "client_name": "ABARROTERIA ROCA DE APOLLO",
      "client_db_ref": "MIGC0518",
      "created_date": "2020-04-02 09:19:51.008",
      "latitude": "9.089157",
      "longitude": "-79.38964",
      "activity_name": "NO VENTA",
      "total": null,
      "motive_text": "Cliente Cerrado",
      "has_allowed_location": true,
      "total_count": 231
    },
    {
      "id": 27990,
      "client_name": "BODEGA MERCENARIO",
      "client_db_ref": "MG003646",
      "created_date": "2020-04-02 09:20:04.317",
      "latitude": "9.090171",
      "longitude": "-79.389865",
      "activity_name": "NO VENTA",
      "total": null,
      "motive_text": "Ubicación de cliente",
      "has_allowed_location": true,
      "total_count": 231
    },
    {
      "id": 28001,
      "client_name": "MINI SUPER 10",
      "client_db_ref": "MIGC1251",
      "created_date": "2020-04-02 09:21:19.129",
      "latitude": "9.089236",
      "longitude": "-79.389641",
      "activity_name": "NO VENTA",
      "total": null,
      "motive_text": "Ubicación de cliente",
      "has_allowed_location": true,
      "total_count": 231
    },
    {
      "id": 28008,
      "client_name": "MINI SUPER 10",
      "client_db_ref": "MIGC1251",
      "created_date": "2020-04-02 09:23:08.573",
      "latitude": "9.088951",
      "longitude": "-79.3895",
      "activity_name": "NO VENTA",
      "total": null,
      "motive_text": "Ubicación de cliente",
      "has_allowed_location": true,
      "total_count": 231
    },
    {
      "id": 28009,
      "client_name": "ABARROTERIA ZHI HAO",
      "client_db_ref": "MIGC0659",
      "created_date": "2020-04-02 09:23:13.682",
      "latitude": "9.091047",
      "longitude": "-79.390415",
      "activity_name": "NO VENTA",
      "total": null,
      "motive_text": "Suficiente inventario",
      "has_allowed_location": true,
      "total_count": 231
    },
    {
      "id": 28011,
      "client_name": "MINI SUPER 10",
      "client_db_ref": "MIGC1251",
      "created_date": "2020-04-02 09:23:17.115",
      "latitude": "9.088951",
      "longitude": "-79.3895",
      "activity_name": "NO VENTA",
      "total": null,
      "motive_text": "Suficiente inventario",
      "has_allowed_location": true,
      "total_count": 231
    },
    {
      "id": 28014,
      "client_name": "ABARROTERIA ZHI HAO",
      "client_db_ref": "MIGC0659",
      "created_date": "2020-04-02 09:23:38.35",
      "latitude": "9.088951",
      "longitude": "-79.3895",
      "activity_name": "NO VENTA",
      "total": null,
      "motive_text": "Ubicación de cliente",
      "has_allowed_location": true,
      "total_count": 231
    },
    {
      "id": 28017,
      "client_name": "ABARROTERIA ZHI HAO",
      "client_db_ref": "MIGC0659",
      "created_date": "2020-04-02 09:24:42.815",
      "latitude": "9.090874",
      "longitude": "-79.389847",
      "activity_name": "NO VENTA",
      "total": null,
      "motive_text": "Suficiente inventario",
      "has_allowed_location": true,
      "total_count": 231
    },
    {
      "id": 28029,
      "client_name": "MINI SUPER FULL MARIA",
      "client_db_ref": "MIGC1374",
      "created_date": "2020-04-02 09:26:34.792",
      "latitude": "9.090873",
      "longitude": "-79.389798",
      "activity_name": "NO VENTA",
      "total": null,
      "motive_text": "Ubicación de cliente",
      "has_allowed_location": true,
      "total_count": 231
    },
    {
      "id": 28031,
      "client_name": "MINI SUPER FULL MARIA",
      "client_db_ref": "MIGC1374",
      "created_date": "2020-04-02 09:26:53.421",
      "latitude": "9.086201",
      "longitude": "-79.389511",
      "activity_name": "NO VENTA",
      "total": null,
      "motive_text": "Suficiente inventario",
      "has_allowed_location": true,
      "total_count": 231
    },
    {
      "id": 28033,
      "client_name": "MINI SUPER FULL MARIA",
      "client_db_ref": "MIGC1374",
      "created_date": "2020-04-02 09:27:07.507",
      "latitude": "9.090895",
      "longitude": "-79.389844",
      "activity_name": "NO VENTA",
      "total": null,
      "motive_text": "Ubicación de cliente",
      "has_allowed_location": true,
      "total_count": 231
    },
    {
      "id": 28040,
      "client_name": "COMISARIATO NUEVO BELEN",
      "client_db_ref": "MIGC0777",
      "created_date": "2020-04-02 09:29:01.501",
      "latitude": "9.086202",
      "longitude": "-79.389509",
      "activity_name": "NO VENTA",
      "total": null,
      "motive_text": "Ubicación de cliente",
      "has_allowed_location": true,
      "total_count": 231
    },
    {
      "id": 28041,
      "client_name": "COMISARIATO NUEVO BELEN",
      "client_db_ref": "MIGC0777",
      "created_date": "2020-04-02 09:29:03.859",
      "latitude": "9.086204",
      "longitude": "-79.389514",
      "activity_name": "NO VENTA",
      "total": null,
      "motive_text": "Ubicación de cliente",
      "has_allowed_location": true,
      "total_count": 231
    },
    {
      "id": 65620,
      "client_name": "COMISARIATO NUEVO BELEN",
      "client_db_ref": "MIGC0777",
      "created_date": "2020-04-02 09:33:45.527",
      "latitude": "9.084515",
      "longitude": "-79.393285",
      "activity_name": "VENTA",
      "total": "59.43316284",
      "motive_text": null,
      "has_allowed_location": true,
      "total_count": 231
    },
    {
      "id": 28061,
      "client_name": "MINI SUPER ALBERTO",
      "client_db_ref": "MIGC1271",
      "created_date": "2020-04-02 09:38:25.339",
      "latitude": "9.089391",
      "longitude": "-79.39402",
      "activity_name": "NO VENTA",
      "total": null,
      "motive_text": "Ubicación de cliente",
      "has_allowed_location": true,
      "total_count": 231
    },
    {
      "id": 28071,
      "client_name": "COMISARIATO NUEVO BELEN",
      "client_db_ref": "MIGC0777",
      "created_date": "2020-04-02 09:42:38.92",
      "latitude": "9.089396",
      "longitude": "-79.394008",
      "activity_name": "NO VENTA",
      "total": null,
      "motive_text": "Suficiente inventario",
      "has_allowed_location": true,
      "total_count": 231
    },
    {
      "id": 28073,
      "client_name": "MINI SUPER ALBERTO",
      "client_db_ref": "MIGC1272",
      "created_date": "2020-04-02 09:42:55.834",
      "latitude": "9.08939",
      "longitude": "-79.394011",
      "activity_name": "NO VENTA",
      "total": null,
      "motive_text": "Ubicación de cliente",
      "has_allowed_location": true,
      "total_count": 231
    },
    {
      "id": 65642,
      "client_name": "MINI SUPER ALBERTO",
      "client_db_ref": "MIGC1272",
      "created_date": "2020-04-02 09:49:12.637",
      "latitude": "9.089404",
      "longitude": "-79.394018",
      "activity_name": "VENTA",
      "total": "14.860008",
      "motive_text": null,
      "has_allowed_location": true,
      "total_count": 231
    },
    {
      "id": 65643,
      "client_name": "MINI SUPER ALBERTO",
      "client_db_ref": "MIGC1272",
      "created_date": "2020-04-02 09:49:18.165",
      "latitude": "9.089391",
      "longitude": "-79.39402",
      "activity_name": "VENTA",
      "total": "33.6923",
      "motive_text": null,
      "has_allowed_location": true,
      "total_count": 231
    },
    {
      "id": 28101,
      "client_name": "M/S LIRI QIU (AL CONTADO)",
      "client_db_ref": "C00000000008592",
      "created_date": "2020-04-02 09:50:17.685",
      "latitude": "9.089404",
      "longitude": "-79.394018",
      "activity_name": "NO VENTA",
      "total": null,
      "motive_text": "Ubicación de cliente",
      "has_allowed_location": true,
      "total_count": 231
    },
    {
      "id": 28104,
      "client_name": "M/S LIRI QIU (AL CONTADO)",
      "client_db_ref": "C00000000008592",
      "created_date": "2020-04-02 09:50:23.48",
      "latitude": "9.089373",
      "longitude": "-79.394022",
      "activity_name": "NO VENTA",
      "total": null,
      "motive_text": "Ubicación de cliente",
      "has_allowed_location": true,
      "total_count": 231
    },
    {
      "id": 28114,
      "client_name": "M/S LIRI QIU (AL CONTADO)",
      "client_db_ref": "C00000000008592",
      "created_date": "2020-04-02 09:51:50.857",
      "latitude": "9.089404",
      "longitude": "-79.394018",
      "activity_name": "NO VENTA",
      "total": null,
      "motive_text": "Suficiente inventario",
      "has_allowed_location": true,
      "total_count": 231
    },
    {
      "id": 28128,
      "client_name": "M/S NEW WAY (CIUDAD BELEN)",
      "client_db_ref": "MG013901",
      "created_date": "2020-04-02 09:54:13.984",
      "latitude": "9.087152",
      "longitude": "-79.394",
      "activity_name": "NO VENTA",
      "total": null,
      "motive_text": "Ubicación de cliente",
      "has_allowed_location": true,
      "total_count": 231
    },
    {
      "id": 28133,
      "client_name": "MINI SUPER NEW WEY",
      "client_db_ref": "MIGC1512",
      "created_date": "2020-04-02 09:54:47.933",
      "latitude": "9.089404",
      "longitude": "-79.394018",
      "activity_name": "NO VENTA",
      "total": null,
      "motive_text": "Suficiente inventario",
      "has_allowed_location": true,
      "total_count": 231
    },
    {
      "id": 28142,
      "client_name": "MINI SUPER NEW WEY",
      "client_db_ref": "MIGC1512",
      "created_date": "2020-04-02 09:57:34.671",
      "latitude": "9.085537",
      "longitude": "-79.391562",
      "activity_name": "NO VENTA",
      "total": null,
      "motive_text": "Suficiente inventario",
      "has_allowed_location": true,
      "total_count": 231
    },
    {
      "id": 28157,
      "client_name": "ABARROTERIA ADELAYS",
      "client_db_ref": "MIGC0244",
      "created_date": "2020-04-02 10:01:52.571",
      "latitude": "9.081958",
      "longitude": "-79.390475",
      "activity_name": "NO VENTA",
      "total": null,
      "motive_text": "Ubicación de cliente",
      "has_allowed_location": true,
      "total_count": 231
    },
    {
      "id": 65663,
      "client_name": "ABARROTERIA ADELAYS",
      "client_db_ref": "MIGC0244",
      "created_date": "2020-04-02 10:05:03.818",
      "latitude": "9.081958",
      "longitude": "-79.390475",
      "activity_name": "VENTA",
      "total": "21.14610428",
      "motive_text": null,
      "has_allowed_location": true,
      "total_count": 231
    },
    {
      "id": 65665,
      "client_name": "ABARROTERIA ADELAYS",
      "client_db_ref": "MIGC0244",
      "created_date": "2020-04-02 10:05:35.595",
      "latitude": "9.085406",
      "longitude": "-79.391451",
      "activity_name": "VENTA",
      "total": "14.786688",
      "motive_text": null,
      "has_allowed_location": true,
      "total_count": 231
    },
    {
      "id": 28171,
      "client_name": "MINI SUPER JOSE CHENG",
      "client_db_ref": "MIGC1411",
      "created_date": "2020-04-02 10:07:08.458",
      "latitude": "9.081891",
      "longitude": "-79.390573",
      "activity_name": "NO VENTA",
      "total": null,
      "motive_text": "Ubicación de cliente",
      "has_allowed_location": true,
      "total_count": 231
    },
    {
      "id": 28172,
      "client_name": "MINI SUPER JOSE CHENG",
      "client_db_ref": "MIGC1411",
      "created_date": "2020-04-02 10:07:14.584",
      "latitude": "9.085406",
      "longitude": "-79.391451",
      "activity_name": "NO VENTA",
      "total": null,
      "motive_text": "Ubicación de cliente",
      "has_allowed_location": true,
      "total_count": 231
    },
    {
      "id": 28192,
      "client_name": "MINI SUPER JOSE CHENG",
      "client_db_ref": "MIGC1411",
      "created_date": "2020-04-02 10:09:01.33",
      "latitude": "9.085406",
      "longitude": "-79.391451",
      "activity_name": "NO VENTA",
      "total": null,
      "motive_text": "Suficiente inventario",
      "has_allowed_location": true,
      "total_count": 231
    },
    {
      "id": 28196,
      "client_name": "M/S TORRE MOLINO",
      "client_db_ref": "MG013968",
      "created_date": "2020-04-02 10:10:17.556",
      "latitude": "9.078512",
      "longitude": "-79.391825",
      "activity_name": "NO VENTA",
      "total": null,
      "motive_text": "Ubicación de cliente",
      "has_allowed_location": true,
      "total_count": 231
    },
    {
      "id": 28208,
      "client_name": "M/S TORRE MOLINO",
      "client_db_ref": "MG013968",
      "created_date": "2020-04-02 10:12:57.966",
      "latitude": "9.07851",
      "longitude": "-79.391833",
      "activity_name": "NO VENTA",
      "total": null,
      "motive_text": "Suficiente inventario",
      "has_allowed_location": true,
      "total_count": 231
    },
    {
      "id": 28209,
      "client_name": "MERCADITO DON JUAN (AL CONTADO)",
      "client_db_ref": "C00000000007353",
      "created_date": "2020-04-02 10:13:07.719",
      "latitude": "9.0738",
      "longitude": "-79.394189",
      "activity_name": "NO VENTA",
      "total": null,
      "motive_text": "Ubicación de cliente",
      "has_allowed_location": true,
      "total_count": 231
    },
    {
      "id": 28210,
      "client_name": "MERCADITO DON JUAN (AL CONTADO)",
      "client_db_ref": "C00000000007353",
      "created_date": "2020-04-02 10:13:11.677",
      "latitude": "9.07851",
      "longitude": "-79.391833",
      "activity_name": "NO VENTA",
      "total": null,
      "motive_text": "Suficiente inventario",
      "has_allowed_location": true,
      "total_count": 231
    },
    {
      "id": 65684,
      "client_name": "MERCADITO DON JUAN (AL CONTADO)",
      "client_db_ref": "C00000000007353",
      "created_date": "2020-04-02 10:19:44.569",
      "latitude": "9.0738",
      "longitude": "-79.394189",
      "activity_name": "VENTA",
      "total": "29.1523",
      "motive_text": null,
      "has_allowed_location": true,
      "total_count": 231
    },
    {
      "id": 65686,
      "client_name": "MERCADITO DON JUAN (AL CONTADO)",
      "client_db_ref": "C00000000007353",
      "created_date": "2020-04-02 10:20:02.015",
      "latitude": "9.073037",
      "longitude": "-79.394706",
      "activity_name": "VENTA",
      "total": "57.025008",
      "motive_text": null,
      "has_allowed_location": true,
      "total_count": 231
    },
    {
      "id": 28250,
      "client_name": "PORTON DEL ESTE",
      "client_db_ref": "MG013914",
      "created_date": "2020-04-02 10:22:03.808",
      "latitude": "9.07299",
      "longitude": "-79.394757",
      "activity_name": "NO VENTA",
      "total": null,
      "motive_text": "Ubicación de cliente",
      "has_allowed_location": true,
      "total_count": 231
    },
    {
      "id": 28256,
      "client_name": "PORTON DEL ESTE",
      "client_db_ref": "MG013914",
      "created_date": "2020-04-02 10:22:55.412",
      "latitude": "9.073008",
      "longitude": "-79.394758",
      "activity_name": "NO VENTA",
      "total": null,
      "motive_text": "Suficiente inventario",
      "has_allowed_location": true,
      "total_count": 231
    },
    {
      "id": 65694,
      "client_name": "COMISARIATO NUEVO BELEN",
      "client_db_ref": "MIGC0777",
      "created_date": "2020-04-02 10:24:20.737",
      "latitude": "9.073008",
      "longitude": "-79.394758",
      "activity_name": "VENTA",
      "total": "20.8",
      "motive_text": null,
      "has_allowed_location": true,
      "total_count": 231
    },
    {
      "id": 65696,
      "client_name": "PORTON DEL ESTE",
      "client_db_ref": "MG013914",
      "created_date": "2020-04-02 10:25:12.046",
      "latitude": "9.074229",
      "longitude": "-79.395897",
      "activity_name": "VENTA",
      "total": "56.9525262",
      "motive_text": null,
      "has_allowed_location": true,
      "total_count": 231
    },
    {
      "id": 28273,
      "client_name": "M/S PUERTA DEL SOL",
      "client_db_ref": "MG005535",
      "created_date": "2020-04-02 10:26:50.985",
      "latitude": "9.074229",
      "longitude": "-79.395897",
      "activity_name": "NO VENTA",
      "total": null,
      "motive_text": "Ubicación de cliente",
      "has_allowed_location": true,
      "total_count": 231
    },
    {
      "id": 28322,
      "client_name": "VENTAS MULTICOMERCIAL",
      "client_db_ref": "C00000000003586",
      "created_date": "2020-04-02 10:35:37.839",
      "latitude": "9.071754",
      "longitude": "-79.396772",
      "activity_name": "NO VENTA",
      "total": null,
      "motive_text": "Ubicación de cliente",
      "has_allowed_location": true,
      "total_count": 231
    },
    {
      "id": 28361,
      "client_name": "MINI SUPER SHOW TIME",
      "client_db_ref": "MIGC1566",
      "created_date": "2020-04-02 10:41:31.966",
      "latitude": "9.06936",
      "longitude": "-79.418841",
      "activity_name": "NO VENTA",
      "total": null,
      "motive_text": "Suficiente inventario",
      "has_allowed_location": true,
      "total_count": 231
    },
    {
      "id": 28363,
      "client_name": "MINI SUPER SHOW TIME",
      "client_db_ref": "MIGC1566",
      "created_date": "2020-04-02 10:41:40.003",
      "latitude": "9.076949",
      "longitude": "-79.400975",
      "activity_name": "NO VENTA",
      "total": null,
      "motive_text": "Ubicación de cliente",
      "has_allowed_location": true,
      "total_count": 231
    },
    {
      "id": 28388,
      "client_name": "MINI SUPER ANABEL LINDA",
      "client_db_ref": "MIGC1284",
      "created_date": "2020-04-02 10:45:25.076",
      "latitude": "9.069401",
      "longitude": "-79.418889",
      "activity_name": "NO VENTA",
      "total": null,
      "motive_text": "Ubicación de cliente",
      "has_allowed_location": true,
      "total_count": 231
    },
    {
      "id": 28398,
      "client_name": "MINI SUPER SHOW TIME",
      "client_db_ref": "MIGC1566",
      "created_date": "2020-04-02 10:47:04.827",
      "latitude": "9.069365",
      "longitude": "-79.418883",
      "activity_name": "NO VENTA",
      "total": null,
      "motive_text": "Suficiente inventario",
      "has_allowed_location": true,
      "total_count": 231
    },
    {
      "id": 65730,
      "client_name": "MINI SUPER ANABEL LINDA",
      "client_db_ref": "MIGC1284",
      "created_date": "2020-04-02 10:49:01.027",
      "latitude": "9.069365",
      "longitude": "-79.418883",
      "activity_name": "VENTA",
      "total": "26.76",
      "motive_text": null,
      "has_allowed_location": true,
      "total_count": 231
    },
    {
      "id": 65731,
      "client_name": "MINI SUPER ANABEL LINDA",
      "client_db_ref": "MIGC1284",
      "created_date": "2020-04-02 10:49:14.312",
      "latitude": "9.069401",
      "longitude": "-79.418889",
      "activity_name": "VENTA",
      "total": "92.48610428",
      "motive_text": null,
      "has_allowed_location": true,
      "total_count": 231
    },
    {
      "id": 28478,
      "client_name": "PANADERIA ZHU MARIO",
      "client_db_ref": "MIGC1658",
      "created_date": "2020-04-02 11:12:45.019",
      "latitude": "9.071633",
      "longitude": "-79.414484",
      "activity_name": "NO VENTA",
      "total": null,
      "motive_text": "Suficiente inventario",
      "has_allowed_location": true,
      "total_count": 231
    },
    {
      "id": 28480,
      "client_name": "MINI SUPER PARQUE REAL",
      "client_db_ref": "MIGC1532",
      "created_date": "2020-04-02 11:12:53.616",
      "latitude": "9.071828",
      "longitude": "-79.414491",
      "activity_name": "NO VENTA",
      "total": null,
      "motive_text": "Ubicación de cliente",
      "has_allowed_location": true,
      "total_count": 231
    },
    {
      "id": 28481,
      "client_name": "MINI SUPER PARQUE REAL",
      "client_db_ref": "MIGC1532",
      "created_date": "2020-04-02 11:13:01.076",
      "latitude": "9.071701",
      "longitude": "-79.414492",
      "activity_name": "NO VENTA",
      "total": null,
      "motive_text": "Cliente Cerrado",
      "has_allowed_location": true,
      "total_count": 231
    },
    {
      "id": 28482,
      "client_name": "PANADERIA ZHU MARIO",
      "client_db_ref": "MIGC1658",
      "created_date": "2020-04-02 11:13:08.612",
      "latitude": "9.071828",
      "longitude": "-79.414491",
      "activity_name": "NO VENTA",
      "total": null,
      "motive_text": "Ubicación de cliente",
      "has_allowed_location": true,
      "total_count": 231
    },
    {
      "id": 28484,
      "client_name": "MINI SUPER JACKY",
      "client_db_ref": "MIGC1400",
      "created_date": "2020-04-02 11:13:20.81",
      "latitude": "9.071701",
      "longitude": "-79.414492",
      "activity_name": "NO VENTA",
      "total": null,
      "motive_text": "Ubicación de cliente",
      "has_allowed_location": true,
      "total_count": 231
    },
    {
      "id": 28488,
      "client_name": "MINI SUPER JACKY",
      "client_db_ref": "MIGC1400",
      "created_date": "2020-04-02 11:13:52.652",
      "latitude": "9.071737",
      "longitude": "-79.414426",
      "activity_name": "NO VENTA",
      "total": null,
      "motive_text": "Ubicación de cliente",
      "has_allowed_location": true,
      "total_count": 231
    },
    {
      "id": 28518,
      "client_name": "MINI SUPER JACKY",
      "client_db_ref": "MIGC1400",
      "created_date": "2020-04-02 11:24:17.359",
      "latitude": "9.071799",
      "longitude": "-79.414503",
      "activity_name": "NO VENTA",
      "total": null,
      "motive_text": "Suficiente inventario",
      "has_allowed_location": true,
      "total_count": 231
    },
    {
      "id": 65760,
      "client_name": "ABARROTERIA ADELAYS",
      "client_db_ref": "MIGC0244",
      "created_date": "2020-04-02 11:24:45.627",
      "latitude": "9.071737",
      "longitude": "-79.414426",
      "activity_name": "VENTA",
      "total": "189.85770428",
      "motive_text": null,
      "has_allowed_location": true,
      "total_count": 231
    },
    {
      "id": 28586,
      "client_name": "ABARROTERIA TIA LEO",
      "client_db_ref": "MIGC0547",
      "created_date": "2020-04-02 11:38:29.206",
      "latitude": "9.07221",
      "longitude": "-79.415391",
      "activity_name": "NO VENTA",
      "total": null,
      "motive_text": "Ubicación de cliente",
      "has_allowed_location": true,
      "total_count": 231
    },
    {
      "id": 65772,
      "client_name": "ABARROTERIA TIA LEO",
      "client_db_ref": "MIGC0547",
      "created_date": "2020-04-02 11:40:12.875",
      "latitude": "9.07221",
      "longitude": "-79.415391",
      "activity_name": "VENTA",
      "total": "12.06068048",
      "motive_text": null,
      "has_allowed_location": true,
      "total_count": 231
    },
    {
      "id": 28590,
      "client_name": "ABARROTERIA TIA LEO",
      "client_db_ref": "MIGC0547",
      "created_date": "2020-04-02 11:40:35.854",
      "latitude": "9.073091",
      "longitude": "-79.41278",
      "activity_name": "NO VENTA",
      "total": null,
      "motive_text": "Suficiente inventario",
      "has_allowed_location": true,
      "total_count": 231
    },
    {
      "id": 28591,
      "client_name": "ABARROTERIA TIA LEO",
      "client_db_ref": "MIGC0547",
      "created_date": "2020-04-02 11:40:39.991",
      "latitude": "9.073091",
      "longitude": "-79.41278",
      "activity_name": "NO VENTA",
      "total": null,
      "motive_text": "Suficiente inventario",
      "has_allowed_location": true,
      "total_count": 231
    },
    {
      "id": 28592,
      "client_name": "MINI SUPER JULISA",
      "client_db_ref": "MIGC1418",
      "created_date": "2020-04-02 11:41:46.733",
      "latitude": "9.073031",
      "longitude": "-79.412758",
      "activity_name": "NO VENTA",
      "total": null,
      "motive_text": "Ubicación de cliente",
      "has_allowed_location": true,
      "total_count": 231
    },
    {
      "id": 28605,
      "client_name": "MINI SUPER JULISA",
      "client_db_ref": "MIGC1418",
      "created_date": "2020-04-02 11:45:02.187",
      "latitude": "9.07303",
      "longitude": "-79.412704",
      "activity_name": "NO VENTA",
      "total": null,
      "motive_text": "Suficiente inventario",
      "has_allowed_location": true,
      "total_count": 231
    },
    {
      "id": 28610,
      "client_name": "MINI SUPER LOS NOGALES",
      "client_db_ref": "MIGC1465",
      "created_date": "2020-04-02 11:46:46.966",
      "latitude": "9.072449",
      "longitude": "-79.411411",
      "activity_name": "NO VENTA",
      "total": null,
      "motive_text": "Ubicación de cliente",
      "has_allowed_location": true,
      "total_count": 231
    },
    {
      "id": 28627,
      "client_name": "KIOSCO POTIN",
      "client_db_ref": "MIGC0949",
      "created_date": "2020-04-02 11:53:51.546",
      "latitude": "9.077118",
      "longitude": "-79.411645",
      "activity_name": "NO VENTA",
      "total": null,
      "motive_text": "Ubicación de cliente",
      "has_allowed_location": true,
      "total_count": 231
    },
    {
      "id": 28634,
      "client_name": "MINI SUPER LOS NOGALES",
      "client_db_ref": "MIGC1465",
      "created_date": "2020-04-02 11:56:47.707",
      "latitude": "9.073225",
      "longitude": "-79.413086",
      "activity_name": "NO VENTA",
      "total": null,
      "motive_text": "Suficiente inventario",
      "has_allowed_location": true,
      "total_count": 231
    },
    {
      "id": 65782,
      "client_name": "KIOSCO POTIN",
      "client_db_ref": "MIGC0949",
      "created_date": "2020-04-02 11:58:20.079",
      "latitude": "9.073225",
      "longitude": "-79.413086",
      "activity_name": "VENTA",
      "total": "35.01",
      "motive_text": null,
      "has_allowed_location": true,
      "total_count": 231
    },
    {
      "id": 65783,
      "client_name": "KIOSCO POTIN",
      "client_db_ref": "MIGC0949",
      "created_date": "2020-04-02 11:58:34.32",
      "latitude": "9.080876",
      "longitude": "-79.413594",
      "activity_name": "VENTA",
      "total": "17.2377",
      "motive_text": null,
      "has_allowed_location": true,
      "total_count": 231
    },
    {
      "id": 28635,
      "client_name": "M/S YEDRA",
      "client_db_ref": "MIGC1175",
      "created_date": "2020-04-02 11:59:58.551",
      "latitude": "9.080805",
      "longitude": "-79.413516",
      "activity_name": "NO VENTA",
      "total": null,
      "motive_text": "Ubicación de cliente",
      "has_allowed_location": true,
      "total_count": 231
    },
    {
      "id": 28640,
      "client_name": "ABARROTERIA LOS ARBOLITOS",
      "client_db_ref": "MIGC0442",
      "created_date": "2020-04-02 12:03:19.996",
      "latitude": "9.081304",
      "longitude": "-79.412217",
      "activity_name": "NO VENTA",
      "total": null,
      "motive_text": "Ubicación de cliente",
      "has_allowed_location": true,
      "total_count": 231
    },
    {
      "id": 28643,
      "client_name": "M/S YEDRA",
      "client_db_ref": "MIGC1175",
      "created_date": "2020-04-02 12:06:38.788",
      "latitude": "9.080793",
      "longitude": "-79.4135",
      "activity_name": "NO VENTA",
      "total": null,
      "motive_text": "Suficiente inventario",
      "has_allowed_location": true,
      "total_count": 231
    },
    {
      "id": 28644,
      "client_name": "ABARROTERIA EL AFORTUNADO",
      "client_db_ref": "MIGC0335",
      "created_date": "2020-04-02 12:06:43.001",
      "latitude": "9.079854",
      "longitude": "-79.411439",
      "activity_name": "NO VENTA",
      "total": null,
      "motive_text": "Ubicación de cliente",
      "has_allowed_location": true,
      "total_count": 231
    },
    {
      "id": 28645,
      "client_name": "ABARROTERIA LOS ARBOLITOS",
      "client_db_ref": "MIGC0442",
      "created_date": "2020-04-02 12:06:54.339",
      "latitude": "9.080793",
      "longitude": "-79.4135",
      "activity_name": "NO VENTA",
      "total": null,
      "motive_text": "Suficiente inventario",
      "has_allowed_location": true,
      "total_count": 231
    },
    {
      "id": 65791,
      "client_name": "ABARROTERIA EL AFORTUNADO",
      "client_db_ref": "MIGC0335",
      "created_date": "2020-04-02 12:12:51.167",
      "latitude": "9.079135",
      "longitude": "-79.411213",
      "activity_name": "VENTA",
      "total": "159.23",
      "motive_text": null,
      "has_allowed_location": true,
      "total_count": 231
    },
    {
      "id": 65792,
      "client_name": "ABARROTERIA EL AFORTUNADO",
      "client_db_ref": "MIGC0335",
      "created_date": "2020-04-02 12:13:15.301",
      "latitude": "9.079854",
      "longitude": "-79.411439",
      "activity_name": "VENTA",
      "total": "150.37943424",
      "motive_text": null,
      "has_allowed_location": true,
      "total_count": 231
    },
    {
      "id": 29721,
      "client_name": "ABARROTERIA ALI-LAN",
      "client_db_ref": "MG005011",
      "created_date": "2020-04-03 10:13:02.608",
      "latitude": "9.094578",
      "longitude": "-79.394996",
      "activity_name": "NO VENTA",
      "total": null,
      "motive_text": "Ubicación de cliente",
      "has_allowed_location": true,
      "total_count": 231
    },
    {
      "id": 29748,
      "client_name": "ABARROTERIA ALI-LAN",
      "client_db_ref": "MG005011",
      "created_date": "2020-04-03 10:16:32.227",
      "latitude": "9.094557",
      "longitude": "-79.394937",
      "activity_name": "NO VENTA",
      "total": null,
      "motive_text": "Suficiente inventario",
      "has_allowed_location": true,
      "total_count": 231
    },
    {
      "id": 29766,
      "client_name": "SUPERMERCADO SURTIMAX",
      "client_db_ref": "MIGC1714",
      "created_date": "2020-04-03 10:21:23.528",
      "latitude": "9.094581",
      "longitude": "-79.395048",
      "activity_name": "NO VENTA",
      "total": null,
      "motive_text": "Suficiente inventario",
      "has_allowed_location": true,
      "total_count": 231
    },
    {
      "id": 29767,
      "client_name": "M/S SURTIMAX",
      "client_db_ref": "MG003613",
      "created_date": "2020-04-03 10:21:27.699",
      "latitude": "9.085522",
      "longitude": "-79.397655",
      "activity_name": "NO VENTA",
      "total": null,
      "motive_text": "Ubicación de cliente",
      "has_allowed_location": true,
      "total_count": 231
    },
    {
      "id": 29768,
      "client_name": "SUPERMERCADO SURTIMAX",
      "client_db_ref": "MIGC1714",
      "created_date": "2020-04-03 10:21:38.232",
      "latitude": "9.10387",
      "longitude": "-79.376181",
      "activity_name": "NO VENTA",
      "total": null,
      "motive_text": "Ubicación de cliente",
      "has_allowed_location": true,
      "total_count": 231
    },
    {
      "id": 29771,
      "client_name": "HAPPY MARKET (AL CONTADO)",
      "client_db_ref": "MIGC1214",
      "created_date": "2020-04-03 10:21:50.694",
      "latitude": "9.10387",
      "longitude": "-79.376181",
      "activity_name": "NO VENTA",
      "total": null,
      "motive_text": "Ubicación de cliente",
      "has_allowed_location": true,
      "total_count": 231
    },
    {
      "id": 29773,
      "client_name": "HAPPY MARKET (AL CONTADO)",
      "client_db_ref": "MIGC1214",
      "created_date": "2020-04-03 10:21:59.872",
      "latitude": "9.085522",
      "longitude": "-79.397655",
      "activity_name": "NO VENTA",
      "total": null,
      "motive_text": "Ubicación de cliente",
      "has_allowed_location": true,
      "total_count": 231
    },
    {
      "id": 29775,
      "client_name": "HAPPY MARKET (AL CONTADO)",
      "client_db_ref": "MIGC1214",
      "created_date": "2020-04-03 10:22:43.422",
      "latitude": "9.083502",
      "longitude": "-79.398466",
      "activity_name": "NO VENTA",
      "total": null,
      "motive_text": "Suficiente inventario",
      "has_allowed_location": true,
      "total_count": 231
    },
    {
      "id": 29782,
      "client_name": "MINI SUPER KEVIN",
      "client_db_ref": "MIGC1427",
      "created_date": "2020-04-03 10:23:52.375",
      "latitude": "9.083327",
      "longitude": "-79.392485",
      "activity_name": "NO VENTA",
      "total": null,
      "motive_text": "Ubicación de cliente",
      "has_allowed_location": true,
      "total_count": 231
    },
    {
      "id": 29784,
      "client_name": "MINI SUPER KEVIN",
      "client_db_ref": "MIGC1427",
      "created_date": "2020-04-03 10:24:07.903",
      "latitude": "9.080651",
      "longitude": "-79.400195",
      "activity_name": "NO VENTA",
      "total": null,
      "motive_text": "Ubicación de cliente",
      "has_allowed_location": true,
      "total_count": 231
    },
    {
      "id": 29788,
      "client_name": "MINI SUPER KEVIN",
      "client_db_ref": "MIGC1427",
      "created_date": "2020-04-03 10:24:13.535",
      "latitude": "9.089573",
      "longitude": "-79.396355",
      "activity_name": "NO VENTA",
      "total": null,
      "motive_text": "Cliente Cerrado",
      "has_allowed_location": true,
      "total_count": 231
    },
    {
      "id": 29807,
      "client_name": "ABARROTERIA LOS RACIMOS",
      "client_db_ref": "MIGC0444",
      "created_date": "2020-04-03 10:28:24.401",
      "latitude": "9.080246",
      "longitude": "-79.400433",
      "activity_name": "NO VENTA",
      "total": null,
      "motive_text": "Ubicación de cliente",
      "has_allowed_location": true,
      "total_count": 231
    },
    {
      "id": 29808,
      "client_name": "ABARROTERIA LOS RACIMOS",
      "client_db_ref": "MIGC0444",
      "created_date": "2020-04-03 10:28:28.908",
      "latitude": "9.078804",
      "longitude": "-79.400929",
      "activity_name": "NO VENTA",
      "total": null,
      "motive_text": "Ubicación de cliente",
      "has_allowed_location": true,
      "total_count": 231
    },
    {
      "id": 29809,
      "client_name": "ABARROTERIA LOS RACIMOS",
      "client_db_ref": "MIGC0444",
      "created_date": "2020-04-03 10:28:42.632",
      "latitude": "9.083512",
      "longitude": "-79.398818",
      "activity_name": "NO VENTA",
      "total": null,
      "motive_text": "Cliente Cerrado",
      "has_allowed_location": true,
      "total_count": 231
    },
    {
      "id": 29821,
      "client_name": "ABARROTERIA CARLA",
      "client_db_ref": "MIGC0290",
      "created_date": "2020-04-03 10:32:55.648",
      "latitude": "9.086784",
      "longitude": "-79.405854",
      "activity_name": "NO VENTA",
      "total": null,
      "motive_text": "Suficiente inventario",
      "has_allowed_location": true,
      "total_count": 231
    },
    {
      "id": 29822,
      "client_name": "ABARROTERIA GONZALEZ",
      "client_db_ref": "MIGC0378",
      "created_date": "2020-04-03 10:32:56.878",
      "latitude": "9.082117",
      "longitude": "-79.40348",
      "activity_name": "NO VENTA",
      "total": null,
      "motive_text": "Ubicación de cliente",
      "has_allowed_location": true,
      "total_count": 231
    },
    {
      "id": 66056,
      "client_name": "ABARROTERIA GONZALEZ",
      "client_db_ref": "MIGC0378",
      "created_date": "2020-04-03 10:33:32.203",
      "latitude": "9.086784",
      "longitude": "-79.405854",
      "activity_name": "VENTA",
      "total": "27.96",
      "motive_text": null,
      "has_allowed_location": true,
      "total_count": 231
    },
    {
      "id": 29829,
      "client_name": "ABARROTERIA CARLA",
      "client_db_ref": "MIGC0290",
      "created_date": "2020-04-03 10:33:40.954",
      "latitude": "9.086213",
      "longitude": "-79.404508",
      "activity_name": "NO VENTA",
      "total": null,
      "motive_text": "Ubicación de cliente",
      "has_allowed_location": true,
      "total_count": 231
    },
    {
      "id": 29837,
      "client_name": "ABARROTERIA GONZALEZ",
      "client_db_ref": "MIGC0378",
      "created_date": "2020-04-03 10:33:45.02",
      "latitude": "9.086784",
      "longitude": "-79.405854",
      "activity_name": "NO VENTA",
      "total": null,
      "motive_text": "Suficiente inventario",
      "has_allowed_location": true,
      "total_count": 231
    },
    {
      "id": 66062,
      "client_name": "ABARROTERIA CARLA",
      "client_db_ref": "MIGC0290",
      "created_date": "2020-04-03 10:35:14.9",
      "latitude": "9.086196",
      "longitude": "-79.404487",
      "activity_name": "VENTA",
      "total": "48.1907",
      "motive_text": null,
      "has_allowed_location": true,
      "total_count": 231
    },
    {
      "id": 29846,
      "client_name": "M/S MELY",
      "client_db_ref": "MIGC1109",
      "created_date": "2020-04-03 10:36:42.944",
      "latitude": "9.086196",
      "longitude": "-79.404487",
      "activity_name": "NO VENTA",
      "total": null,
      "motive_text": "Ubicación de cliente",
      "has_allowed_location": true,
      "total_count": 231
    },
    {
      "id": 29848,
      "client_name": "M/S MELY",
      "client_db_ref": "MIGC1109",
      "created_date": "2020-04-03 10:37:05.448",
      "latitude": "9.086784",
      "longitude": "-79.405854",
      "activity_name": "NO VENTA",
      "total": null,
      "motive_text": "Ubicación de cliente",
      "has_allowed_location": true,
      "total_count": 231
    },
    {
      "id": 66067,
      "client_name": "M/S MELY",
      "client_db_ref": "MIGC1109",
      "created_date": "2020-04-03 10:38:47.087",
      "latitude": "9.071452",
      "longitude": "-79.405854",
      "activity_name": "VENTA",
      "total": "5.28",
      "motive_text": null,
      "has_allowed_location": true,
      "total_count": 231
    },
    {
      "id": 29859,
      "client_name": "ABARROTERIA ATAIAS #1",
      "client_db_ref": "MIGC0269",
      "created_date": "2020-04-03 10:40:31.006",
      "latitude": "9.079032",
      "longitude": "-79.397059",
      "activity_name": "NO VENTA",
      "total": null,
      "motive_text": "Ubicación de cliente",
      "has_allowed_location": true,
      "total_count": 231
    },
    {
      "id": 29860,
      "client_name": "ABARROTERIA ATAIAS #1",
      "client_db_ref": "MIGC0269",
      "created_date": "2020-04-03 10:40:36.829",
      "latitude": "9.083602",
      "longitude": "-79.406363",
      "activity_name": "NO VENTA",
      "total": null,
      "motive_text": "Ubicación de cliente",
      "has_allowed_location": true,
      "total_count": 231
    },
    {
      "id": 29862,
      "client_name": "ABARROTERIA ATAIAS #1",
      "client_db_ref": "MIGC0269",
      "created_date": "2020-04-03 10:40:38.86",
      "latitude": "9.071452",
      "longitude": "-79.405854",
      "activity_name": "NO VENTA",
      "total": null,
      "motive_text": "Suficiente inventario",
      "has_allowed_location": true,
      "total_count": 231
    },
    {
      "id": 29904,
      "client_name": "M/S BIEN FRIA (AL CONTADO)",
      "client_db_ref": "C00000000008548",
      "created_date": "2020-04-03 10:42:06.952",
      "latitude": "9.08475",
      "longitude": "-79.407064",
      "activity_name": "NO VENTA",
      "total": null,
      "motive_text": "Ubicación de cliente",
      "has_allowed_location": true,
      "total_count": 231
    },
    {
      "id": 29905,
      "client_name": "M/S BIEN FRIA (AL CONTADO)",
      "client_db_ref": "C00000000008548",
      "created_date": "2020-04-03 10:42:13.54",
      "latitude": "9.071452",
      "longitude": "-79.405854",
      "activity_name": "NO VENTA",
      "total": null,
      "motive_text": "Suficiente inventario",
      "has_allowed_location": true,
      "total_count": 231
    },
    {
      "id": 66074,
      "client_name": "M/S BIEN FRIA (AL CONTADO)",
      "client_db_ref": "C00000000008548",
      "created_date": "2020-04-03 10:46:20.339",
      "latitude": "9.08475",
      "longitude": "-79.407064",
      "activity_name": "VENTA",
      "total": "17.5",
      "motive_text": null,
      "has_allowed_location": true,
      "total_count": 231
    },
    {
      "id": 29927,
      "client_name": "M/S BIEN FRIA (AL CONTADO)",
      "client_db_ref": "C00000000008548",
      "created_date": "2020-04-03 10:46:21.689",
      "latitude": "9.088508",
      "longitude": "-79.406558",
      "activity_name": "NO VENTA",
      "total": null,
      "motive_text": "Suficiente inventario",
      "has_allowed_location": true,
      "total_count": 231
    },
    {
      "id": 29938,
      "client_name": "COMISARIATO YULIYEN",
      "client_db_ref": "MIGC0782",
      "created_date": "2020-04-03 10:48:00.333",
      "latitude": "9.089394",
      "longitude": "-79.406696",
      "activity_name": "NO VENTA",
      "total": null,
      "motive_text": "Ubicación de cliente",
      "has_allowed_location": true,
      "total_count": 231
    },
    {
      "id": 29981,
      "client_name": "COMISARIATO YULIYEN",
      "client_db_ref": "MIGC0782",
      "created_date": "2020-04-03 10:54:13.352",
      "latitude": "9.092866",
      "longitude": "-79.404095",
      "activity_name": "NO VENTA",
      "total": null,
      "motive_text": "Cliente Cerrado",
      "has_allowed_location": true,
      "total_count": 231
    },
    {
      "id": 29997,
      "client_name": "ABARROTERIA FUNG",
      "client_db_ref": "MIGC0371",
      "created_date": "2020-04-03 10:57:24.737",
      "latitude": "9.091547",
      "longitude": "-79.407218",
      "activity_name": "NO VENTA",
      "total": null,
      "motive_text": "Ubicación de cliente",
      "has_allowed_location": true,
      "total_count": 231
    },
    {
      "id": 30029,
      "client_name": "ABARROTERIA TOPI",
      "client_db_ref": "MIGC0549",
      "created_date": "2020-04-03 11:02:21.605",
      "latitude": "9.090681",
      "longitude": "-79.409825",
      "activity_name": "NO VENTA",
      "total": null,
      "motive_text": "Ubicación de cliente",
      "has_allowed_location": true,
      "total_count": 231
    },
    {
      "id": 30032,
      "client_name": "ABARROTERIA FUNG",
      "client_db_ref": "MIGC0371",
      "created_date": "2020-04-03 11:02:36.45",
      "latitude": "9.092866",
      "longitude": "-79.404095",
      "activity_name": "NO VENTA",
      "total": null,
      "motive_text": "Suficiente inventario",
      "has_allowed_location": true,
      "total_count": 231
    },
    {
      "id": 66097,
      "client_name": "ABARROTERIA TOPI",
      "client_db_ref": "MIGC0549",
      "created_date": "2020-04-03 11:07:09.802",
      "latitude": "9.090681",
      "longitude": "-79.409825",
      "activity_name": "VENTA",
      "total": "19.1481",
      "motive_text": null,
      "has_allowed_location": true,
      "total_count": 231
    },
    {
      "id": 66099,
      "client_name": "ABARROTERIA TOPI",
      "client_db_ref": "MIGC0549",
      "created_date": "2020-04-03 11:08:55.611",
      "latitude": "9.092669",
      "longitude": "-79.409021",
      "activity_name": "VENTA",
      "total": "15.433344",
      "motive_text": null,
      "has_allowed_location": true,
      "total_count": 231
    },
    {
      "id": 30052,
      "client_name": "ABARROTERIA ETHEL",
      "client_db_ref": "MIGC0360",
      "created_date": "2020-04-03 11:09:28.045",
      "latitude": "9.091243",
      "longitude": "-79.408845",
      "activity_name": "NO VENTA",
      "total": null,
      "motive_text": "Ubicación de cliente",
      "has_allowed_location": true,
      "total_count": 231
    },
    {
      "id": 66100,
      "client_name": "ABARROTERIA ETHEL",
      "client_db_ref": "MIGC0360",
      "created_date": "2020-04-03 11:10:23.328",
      "latitude": "9.092669",
      "longitude": "-79.409021",
      "activity_name": "VENTA",
      "total": "22.180032",
      "motive_text": null,
      "has_allowed_location": true,
      "total_count": 231
    },
    {
      "id": 66102,
      "client_name": "ABARROTERIA ETHEL",
      "client_db_ref": "MIGC0360",
      "created_date": "2020-04-03 11:11:08.609",
      "latitude": "9.092794",
      "longitude": "-79.408187",
      "activity_name": "VENTA",
      "total": "30.38701464",
      "motive_text": null,
      "has_allowed_location": true,
      "total_count": 231
    },
    {
      "id": 30060,
      "client_name": "SUPERMERCADO MULTI CERDO (AL CONTADO)",
      "client_db_ref": "MIGC1341",
      "created_date": "2020-04-03 11:12:06.102",
      "latitude": "9.092796",
      "longitude": "-79.408169",
      "activity_name": "NO VENTA",
      "total": null,
      "motive_text": "Ubicación de cliente",
      "has_allowed_location": true,
      "total_count": 231
    },
    {
      "id": 30061,
      "client_name": "SUPERMERCADO MULTI CERDO (AL CONTADO)",
      "client_db_ref": "MIGC1341",
      "created_date": "2020-04-03 11:12:15.507",
      "latitude": "9.093299",
      "longitude": "-79.407262",
      "activity_name": "NO VENTA",
      "total": null,
      "motive_text": "Ubicación de cliente",
      "has_allowed_location": true,
      "total_count": 231
    },
    {
      "id": 66107,
      "client_name": "SUPERMERCADO MULTI CERDO (AL CONTADO)",
      "client_db_ref": "MIGC1341",
      "created_date": "2020-04-03 11:17:23.119",
      "latitude": "9.093299",
      "longitude": "-79.407262",
      "activity_name": "VENTA",
      "total": "14.786688",
      "motive_text": null,
      "has_allowed_location": true,
      "total_count": 231
    },
    {
      "id": 30095,
      "client_name": "ABARROTERIA Y CARN. SELEC",
      "client_db_ref": "MIGC0621",
      "created_date": "2020-04-03 11:22:14.995",
      "latitude": "9.093178",
      "longitude": "-79.407243",
      "activity_name": "NO VENTA",
      "total": null,
      "motive_text": "Ubicación de cliente",
      "has_allowed_location": true,
      "total_count": 231
    },
    {
      "id": 30096,
      "client_name": "ABARROTERIA Y CARN. SELEC",
      "client_db_ref": "MIGC0621",
      "created_date": "2020-04-03 11:22:43.092",
      "latitude": "9.093183",
      "longitude": "-79.407241",
      "activity_name": "NO VENTA",
      "total": null,
      "motive_text": "Ubicación de cliente",
      "has_allowed_location": true,
      "total_count": 231
    },
    {
      "id": 30097,
      "client_name": "ABARROTERIA Y CARN. SELEC",
      "client_db_ref": "MIGC0621",
      "created_date": "2020-04-03 11:23:04.965",
      "latitude": "9.093183",
      "longitude": "-79.407241",
      "activity_name": "NO VENTA",
      "total": null,
      "motive_text": "Suficiente inventario",
      "has_allowed_location": true,
      "total_count": 231
    },
    {
      "id": 30108,
      "client_name": "MINI SUPER HELEN",
      "client_db_ref": "MIGC1382",
      "created_date": "2020-04-03 11:25:43.895",
      "latitude": "9.095012",
      "longitude": "-79.40592",
      "activity_name": "NO VENTA",
      "total": null,
      "motive_text": "Ubicación de cliente",
      "has_allowed_location": true,
      "total_count": 231
    },
    {
      "id": 30109,
      "client_name": "MINI SUPER HELEN",
      "client_db_ref": "MIGC1382",
      "created_date": "2020-04-03 11:26:12.888",
      "latitude": "9.095051",
      "longitude": "-79.406096",
      "activity_name": "NO VENTA",
      "total": null,
      "motive_text": "Ubicación de cliente",
      "has_allowed_location": true,
      "total_count": 231
    },
    {
      "id": 66122,
      "client_name": "MINI SUPER HELEN",
      "client_db_ref": "MIGC1382",
      "created_date": "2020-04-03 11:27:20.678",
      "latitude": "9.095051",
      "longitude": "-79.406096",
      "activity_name": "VENTA",
      "total": "21.12",
      "motive_text": null,
      "has_allowed_location": true,
      "total_count": 231
    },
    {
      "id": 30137,
      "client_name": "ABT. CIUDAD JARDIN MANANITAS",
      "client_db_ref": "MIGC0678",
      "created_date": "2020-04-03 11:35:44.436",
      "latitude": "9.091547",
      "longitude": "-79.407218",
      "activity_name": "NO VENTA",
      "total": null,
      "motive_text": "Visita de cobro",
      "has_allowed_location": true,
      "total_count": 231
    },
    {
      "id": 66143,
      "client_name": "ABT. CIUDAD JARDIN MANANITAS",
      "client_db_ref": "MIGC0678",
      "created_date": "2020-04-03 11:47:51.139",
      "latitude": "9.095051",
      "longitude": "-79.406096",
      "activity_name": "VENTA",
      "total": "29.366672",
      "motive_text": null,
      "has_allowed_location": true,
      "total_count": 231
    },
    {
      "id": 30159,
      "client_name": "MINI SUPER ERICK",
      "client_db_ref": "MIGC1360",
      "created_date": "2020-04-03 11:48:56.635",
      "latitude": "9.095051",
      "longitude": "-79.406096",
      "activity_name": "NO VENTA",
      "total": null,
      "motive_text": "Ubicación de cliente",
      "has_allowed_location": true,
      "total_count": 231
    },
    {
      "id": 30160,
      "client_name": "MINI SUPER ERICK",
      "client_db_ref": "MIGC1360",
      "created_date": "2020-04-03 11:49:14.248",
      "latitude": "9.09248",
      "longitude": "-79.402002",
      "activity_name": "NO VENTA",
      "total": null,
      "motive_text": "Ubicación de cliente",
      "has_allowed_location": true,
      "total_count": 231
    },
    {
      "id": 66147,
      "client_name": "MINI SUPER ERICK",
      "client_db_ref": "MIGC1360",
      "created_date": "2020-04-03 11:50:25.961",
      "latitude": "9.095051",
      "longitude": "-79.406096",
      "activity_name": "VENTA",
      "total": "14.76",
      "motive_text": null,
      "has_allowed_location": true,
      "total_count": 231
    },
    {
      "id": 30182,
      "client_name": "MINI SUPER MANANITAS",
      "client_db_ref": "MIGC1477",
      "created_date": "2020-04-03 12:00:36.052",
      "latitude": "9.087301",
      "longitude": "-79.400225",
      "activity_name": "NO VENTA",
      "total": null,
      "motive_text": "Ubicación de cliente",
      "has_allowed_location": true,
      "total_count": 231
    },
    {
      "id": 30327,
      "client_name": "ABARROTERIA CARMENMARIO",
      "client_db_ref": "MIGC0294",
      "created_date": "2020-04-04 07:35:54.059",
      "latitude": "9.09289",
      "longitude": "-79.402818",
      "activity_name": "NO VENTA",
      "total": null,
      "motive_text": "Ubicación de cliente",
      "has_allowed_location": true,
      "total_count": 231
    },
    {
      "id": 66233,
      "client_name": "ABARROTERIA CARMENMARIO",
      "client_db_ref": "MIGC0294",
      "created_date": "2020-04-04 07:38:23.948",
      "latitude": "9.093881",
      "longitude": "-79.40429",
      "activity_name": "VENTA",
      "total": "20.97",
      "motive_text": null,
      "has_allowed_location": true,
      "total_count": 231
    },
    {
      "id": 30341,
      "client_name": "M/S SHERLY",
      "client_db_ref": "MIGC1140",
      "created_date": "2020-04-04 07:40:58.478",
      "latitude": "9.104361",
      "longitude": "-79.400911",
      "activity_name": "NO VENTA",
      "total": null,
      "motive_text": "Ubicación de cliente",
      "has_allowed_location": true,
      "total_count": 231
    },
    {
      "id": 30349,
      "client_name": "ABARROTERIA Y CARN. DON JULIO",
      "client_db_ref": "MIGC0594",
      "created_date": "2020-04-04 07:44:34.789",
      "latitude": "9.108894",
      "longitude": "-79.397604",
      "activity_name": "NO VENTA",
      "total": null,
      "motive_text": "Ubicación de cliente",
      "has_allowed_location": true,
      "total_count": 231
    },
    {
      "id": 30358,
      "client_name": "ABARROTERIA ZUNISH",
      "client_db_ref": "MIGC0661",
      "created_date": "2020-04-04 07:48:10.26",
      "latitude": "9.10926",
      "longitude": "-79.395936",
      "activity_name": "NO VENTA",
      "total": null,
      "motive_text": "Suficiente inventario",
      "has_allowed_location": true,
      "total_count": 231
    },
    {
      "id": 66240,
      "client_name": "ABARROTERIA ZUNISH",
      "client_db_ref": "MIGC0661",
      "created_date": "2020-04-04 07:50:53.662",
      "latitude": "9.10926",
      "longitude": "-79.395936",
      "activity_name": "VENTA",
      "total": "9.93227928",
      "motive_text": null,
      "has_allowed_location": true,
      "total_count": 231
    },
    {
      "id": 30384,
      "client_name": "ABARROTERIA ATAIAIS",
      "client_db_ref": "MIGC0268",
      "created_date": "2020-04-04 07:54:01.572",
      "latitude": "9.107065",
      "longitude": "-79.400225",
      "activity_name": "NO VENTA",
      "total": null,
      "motive_text": "Ubicación de cliente",
      "has_allowed_location": true,
      "total_count": 231
    },
    {
      "id": 30388,
      "client_name": "MINI SUPER 8 SEPT",
      "client_db_ref": "MIGC1258",
      "created_date": "2020-04-04 07:57:00.01",
      "latitude": "9.110205",
      "longitude": "-79.40118",
      "activity_name": "NO VENTA",
      "total": null,
      "motive_text": "Ubicación de cliente",
      "has_allowed_location": true,
      "total_count": 231
    },
    {
      "id": 30397,
      "client_name": "ABARROTERIA CARMENMARIO",
      "client_db_ref": "MIGC0294",
      "created_date": "2020-04-04 08:00:22.609",
      "latitude": "9.104375",
      "longitude": "-79.400855",
      "activity_name": "NO VENTA",
      "total": null,
      "motive_text": "Ubicación de cliente",
      "has_allowed_location": true,
      "total_count": 231
    },
    {
      "id": 30398,
      "client_name": "ABARROTERIA LA PRIMAVERA (AL CONTADO)",
      "client_db_ref": "MIGC1599",
      "created_date": "2020-04-04 08:01:00.211",
      "latitude": "9.107869",
      "longitude": "-79.3995",
      "activity_name": "NO VENTA",
      "total": null,
      "motive_text": "Ubicación de cliente",
      "has_allowed_location": true,
      "total_count": 231
    },
    {
      "id": 30404,
      "client_name": "ABARROTERIA YINELA",
      "client_db_ref": "MIGC0654",
      "created_date": "2020-04-04 08:03:29.94",
      "latitude": "9.105355",
      "longitude": "-79.400507",
      "activity_name": "NO VENTA",
      "total": null,
      "motive_text": "Ubicación de cliente",
      "has_allowed_location": true,
      "total_count": 231
    },
    {
      "id": 30431,
      "client_name": "MINI SUPER ANDRHE",
      "client_db_ref": "MIGC1286",
      "created_date": "2020-04-04 08:10:45.546",
      "latitude": "9.097564",
      "longitude": "-79.401999",
      "activity_name": "NO VENTA",
      "total": null,
      "motive_text": "Ubicación de cliente",
      "has_allowed_location": true,
      "total_count": 231
    },
    {
      "id": 66259,
      "client_name": "ABARROTERIA CARMENMARIO",
      "client_db_ref": "MIGC0294",
      "created_date": "2020-04-04 08:13:33.753",
      "latitude": "9.104375",
      "longitude": "-79.400855",
      "activity_name": "VENTA",
      "total": "14.76",
      "motive_text": null,
      "has_allowed_location": true,
      "total_count": 231
    },
    {
      "id": 30461,
      "client_name": "M/S SHERLY",
      "client_db_ref": "MIGC1140",
      "created_date": "2020-04-04 08:16:56.273",
      "latitude": "9.104375",
      "longitude": "-79.400855",
      "activity_name": "NO VENTA",
      "total": null,
      "motive_text": "Suficiente inventario",
      "has_allowed_location": true,
      "total_count": 231
    },
    {
      "id": 66263,
      "client_name": "MINI SUPER ANDRHE",
      "client_db_ref": "MIGC1286",
      "created_date": "2020-04-04 08:18:51.242",
      "latitude": "9.096933",
      "longitude": "-79.409668",
      "activity_name": "VENTA",
      "total": "45.622125",
      "motive_text": null,
      "has_allowed_location": true,
      "total_count": 231
    },
    {
      "id": 30467,
      "client_name": "MINI SUPER MANANA",
      "client_db_ref": "MIGC1476",
      "created_date": "2020-04-04 08:19:30.02",
      "latitude": "9.097036",
      "longitude": "-79.409858",
      "activity_name": "NO VENTA",
      "total": null,
      "motive_text": "Ubicación de cliente",
      "has_allowed_location": true,
      "total_count": 231
    },
    {
      "id": 30468,
      "client_name": "ABARROTERIA Y CARN. DON JULIO",
      "client_db_ref": "MIGC0594",
      "created_date": "2020-04-04 08:19:38.549",
      "latitude": "9.104375",
      "longitude": "-79.400855",
      "activity_name": "NO VENTA",
      "total": null,
      "motive_text": "Ubicación de cliente",
      "has_allowed_location": true,
      "total_count": 231
    },
    {
      "id": 30469,
      "client_name": "ABARROTERIA Y CARN. DON JULIO",
      "client_db_ref": "MIGC0594",
      "created_date": "2020-04-04 08:19:52.045",
      "latitude": "9.104375",
      "longitude": "-79.400855",
      "activity_name": "NO VENTA",
      "total": null,
      "motive_text": "Suficiente inventario",
      "has_allowed_location": true,
      "total_count": 231
    },
    {
      "id": 30478,
      "client_name": "ABARROTERIA ZUNISH",
      "client_db_ref": "MIGC0661",
      "created_date": "2020-04-04 08:22:00.231",
      "latitude": "9.109265",
      "longitude": "-79.395784",
      "activity_name": "NO VENTA",
      "total": null,
      "motive_text": "Ubicación de cliente",
      "has_allowed_location": true,
      "total_count": 231
    },
    {
      "id": 66271,
      "client_name": "ABARROTERIA ZUNISH",
      "client_db_ref": "MIGC0661",
      "created_date": "2020-04-04 08:23:38.155",
      "latitude": "9.109265",
      "longitude": "-79.395784",
      "activity_name": "VENTA",
      "total": "14.76",
      "motive_text": null,
      "has_allowed_location": true,
      "total_count": 231
    },
    {
      "id": 30484,
      "client_name": "M/S SUSANA YEN",
      "client_db_ref": "MIGC1144",
      "created_date": "2020-04-04 08:24:16.204",
      "latitude": "9.096879",
      "longitude": "-79.409855",
      "activity_name": "NO VENTA",
      "total": null,
      "motive_text": "Ubicación de cliente",
      "has_allowed_location": true,
      "total_count": 231
    },
    {
      "id": 30486,
      "client_name": "ABARROTERIA ATAIAIS",
      "client_db_ref": "MIGC0268",
      "created_date": "2020-04-04 08:25:04.437",
      "latitude": "9.109265",
      "longitude": "-79.395784",
      "activity_name": "NO VENTA",
      "total": null,
      "motive_text": "Ubicación de cliente",
      "has_allowed_location": true,
      "total_count": 231
    },
    {
      "id": 30489,
      "client_name": "ABARROTERIA ATAIAIS",
      "client_db_ref": "MIGC0268",
      "created_date": "2020-04-04 08:25:21.992",
      "latitude": "9.110213",
      "longitude": "-79.401198",
      "activity_name": "NO VENTA",
      "total": null,
      "motive_text": "Suficiente inventario",
      "has_allowed_location": true,
      "total_count": 231
    },
    {
      "id": 30496,
      "client_name": "MINI SUPER 8 SEPT",
      "client_db_ref": "MIGC1258",
      "created_date": "2020-04-04 08:27:18.846",
      "latitude": "9.110209",
      "longitude": "-79.40119",
      "activity_name": "NO VENTA",
      "total": null,
      "motive_text": "Ubicación de cliente",
      "has_allowed_location": true,
      "total_count": 231
    },
    {
      "id": 30498,
      "client_name": "ABARROTERIA MARIA",
      "client_db_ref": "MIGC0458",
      "created_date": "2020-04-04 08:27:36.056",
      "latitude": "9.098771",
      "longitude": "-79.410894",
      "activity_name": "NO VENTA",
      "total": null,
      "motive_text": "Ubicación de cliente",
      "has_allowed_location": true,
      "total_count": 231
    },
    {
      "id": 30500,
      "client_name": "MINI SUPER 8 SEPT",
      "client_db_ref": "MIGC1258",
      "created_date": "2020-04-04 08:27:46.568",
      "latitude": "9.107887",
      "longitude": "-79.399346",
      "activity_name": "NO VENTA",
      "total": null,
      "motive_text": "Suficiente inventario",
      "has_allowed_location": true,
      "total_count": 231
    },
    {
      "id": 30512,
      "client_name": "ABARROTERIA LA PRIMAVERA (AL CONTADO)",
      "client_db_ref": "MIGC1599",
      "created_date": "2020-04-04 08:28:53.297",
      "latitude": "9.107887",
      "longitude": "-79.399346",
      "activity_name": "NO VENTA",
      "total": null,
      "motive_text": "Suficiente inventario",
      "has_allowed_location": true,
      "total_count": 231
    },
    {
      "id": 30517,
      "client_name": "ABARROTERIA YINELA",
      "client_db_ref": "MIGC0654",
      "created_date": "2020-04-04 08:29:45.178",
      "latitude": "9.107887",
      "longitude": "-79.399346",
      "activity_name": "NO VENTA",
      "total": null,
      "motive_text": "Suficiente inventario",
      "has_allowed_location": true,
      "total_count": 231
    },
    {
      "id": 66286,
      "client_name": "ABARROTERIA MARIA",
      "client_db_ref": "MIGC0458",
      "created_date": "2020-04-04 08:35:59.658",
      "latitude": "9.098771",
      "longitude": "-79.410894",
      "activity_name": "VENTA",
      "total": "12.72229572",
      "motive_text": null,
      "has_allowed_location": true,
      "total_count": 231
    },
    {
      "id": 30540,
      "client_name": "M/S ALICIA LA MARAVILLA",
      "client_db_ref": "MIGC0999",
      "created_date": "2020-04-04 08:36:15.121",
      "latitude": "9.100132",
      "longitude": "-79.406812",
      "activity_name": "NO VENTA",
      "total": null,
      "motive_text": "Ubicación de cliente",
      "has_allowed_location": true,
      "total_count": 231
    },
    {
      "id": 30609,
      "client_name": "KIOSCO ARIZON",
      "client_db_ref": "MIGC0868",
      "created_date": "2020-04-04 08:46:50.5",
      "latitude": "9.102662",
      "longitude": "-79.407469",
      "activity_name": "NO VENTA",
      "total": null,
      "motive_text": "Ubicación de cliente",
      "has_allowed_location": true,
      "total_count": 231
    },
    {
      "id": 30639,
      "client_name": "MINI SUPER MANANA",
      "client_db_ref": "MIGC1476",
      "created_date": "2020-04-04 08:51:49.624",
      "latitude": "9.107887",
      "longitude": "-79.399346",
      "activity_name": "NO VENTA",
      "total": null,
      "motive_text": "Suficiente inventario",
      "has_allowed_location": true,
      "total_count": 231
    },
    {
      "id": 66298,
      "client_name": "MINI SUPER ANDRHE",
      "client_db_ref": "MIGC1286",
      "created_date": "2020-04-04 08:52:39.421",
      "latitude": "9.107887",
      "longitude": "-79.399346",
      "activity_name": "VENTA",
      "total": "40.68",
      "motive_text": null,
      "has_allowed_location": true,
      "total_count": 231
    },
    {
      "id": 30710,
      "client_name": "ABARROTERIA EUCLIDES VEGA",
      "client_db_ref": "MIGC0361",
      "created_date": "2020-04-04 09:03:39.127",
      "latitude": "9.107887",
      "longitude": "-79.399346",
      "activity_name": "NO VENTA",
      "total": null,
      "motive_text": "Suficiente inventario",
      "has_allowed_location": true,
      "total_count": 231
    },
    {
      "id": 30717,
      "client_name": "M/S TERCERA Y CUARTA ETAPA",
      "client_db_ref": "MIGC1146",
      "created_date": "2020-04-04 09:04:56.496",
      "latitude": "9.104176",
      "longitude": "-79.407027",
      "activity_name": "NO VENTA",
      "total": null,
      "motive_text": "Ubicación de cliente",
      "has_allowed_location": true,
      "total_count": 231
    },
    {
      "id": 66322,
      "client_name": "ABARROTERIA Y CARNICERIA Y BODEGA ZAYRA (AL CONTADO)",
      "client_db_ref": "C00000000009600",
      "created_date": "2020-04-04 09:06:09.716",
      "latitude": "9.107887",
      "longitude": "-79.399346",
      "activity_name": "VENTA",
      "total": "50.52",
      "motive_text": null,
      "has_allowed_location": true,
      "total_count": 231
    },
    {
      "id": 30731,
      "client_name": "M/S SUSANA YEN",
      "client_db_ref": "MIGC1144",
      "created_date": "2020-04-04 09:07:33.964",
      "latitude": "9.094336",
      "longitude": "-79.410629",
      "activity_name": "NO VENTA",
      "total": null,
      "motive_text": "Cliente Cerrado",
      "has_allowed_location": true,
      "total_count": 231
    },
    {
      "id": 30749,
      "client_name": "M/S DON KU",
      "client_db_ref": "MIGC1039",
      "created_date": "2020-04-04 09:10:50.66",
      "latitude": "9.10608",
      "longitude": "-79.406266",
      "activity_name": "NO VENTA",
      "total": null,
      "motive_text": "Ubicación de cliente",
      "has_allowed_location": true,
      "total_count": 231
    },
    {
      "id": 30773,
      "client_name": "M/S NAVIDAD",
      "client_db_ref": "MIGC1115",
      "created_date": "2020-04-04 09:15:24.788",
      "latitude": "9.102184",
      "longitude": "-79.407706",
      "activity_name": "NO VENTA",
      "total": null,
      "motive_text": "Ubicación de cliente",
      "has_allowed_location": true,
      "total_count": 231
    },
    {
      "id": 30823,
      "client_name": "M/S JOSE YAU",
      "client_db_ref": "MIGC1079",
      "created_date": "2020-04-04 09:19:32.238",
      "latitude": "9.104579",
      "longitude": "-79.412405",
      "activity_name": "NO VENTA",
      "total": null,
      "motive_text": "Ubicación de cliente",
      "has_allowed_location": true,
      "total_count": 231
    },
    {
      "id": 30830,
      "client_name": "MINI SUPER EL FARO",
      "client_db_ref": "MIGC1245",
      "created_date": "2020-04-04 09:20:51.635",
      "latitude": "9.094336",
      "longitude": "-79.410629",
      "activity_name": "NO VENTA",
      "total": null,
      "motive_text": "Suficiente inventario",
      "has_allowed_location": true,
      "total_count": 231
    },
    {
      "id": 30842,
      "client_name": "M/S MADRUGADOR",
      "client_db_ref": "MG005540",
      "created_date": "2020-04-04 09:23:33.112",
      "latitude": "9.10149",
      "longitude": "-79.411311",
      "activity_name": "NO VENTA",
      "total": null,
      "motive_text": "Ubicación de cliente",
      "has_allowed_location": true,
      "total_count": 231
    },
    {
      "id": 66344,
      "client_name": "M/S JOSE YAU",
      "client_db_ref": "MIGC1079",
      "created_date": "2020-04-04 09:25:51.066",
      "latitude": "9.094336",
      "longitude": "-79.410629",
      "activity_name": "VENTA",
      "total": "44.580032",
      "motive_text": null,
      "has_allowed_location": true,
      "total_count": 231
    },
    {
      "id": 30853,
      "client_name": "MINI SUPER EL FARO",
      "client_db_ref": "MIGC1245",
      "created_date": "2020-04-04 09:26:06.142",
      "latitude": "9.100797",
      "longitude": "-79.411303",
      "activity_name": "NO VENTA",
      "total": null,
      "motive_text": "Ubicación de cliente",
      "has_allowed_location": true,
      "total_count": 231
    },
    {
      "id": 30865,
      "client_name": "M/S BRISA FRESCAS",
      "client_db_ref": "MIGC1015",
      "created_date": "2020-04-04 09:27:59.742",
      "latitude": "9.100238",
      "longitude": "-79.411253",
      "activity_name": "NO VENTA",
      "total": null,
      "motive_text": "Ubicación de cliente",
      "has_allowed_location": true,
      "total_count": 231
    },
    {
      "id": 66359,
      "client_name": "M/S BRISA FRESCAS",
      "client_db_ref": "MIGC1015",
      "created_date": "2020-04-04 09:34:21.493",
      "latitude": "9.100238",
      "longitude": "-79.411253",
      "activity_name": "VENTA",
      "total": "87.80090856",
      "motive_text": null,
      "has_allowed_location": true,
      "total_count": 231
    },
    {
      "id": 30904,
      "client_name": "ABARROTERIA EUCLIDES VEGA",
      "client_db_ref": "MIGC0361",
      "created_date": "2020-04-04 09:34:43.606",
      "latitude": "9.093677",
      "longitude": "-79.41098",
      "activity_name": "NO VENTA",
      "total": null,
      "motive_text": "Ubicación de cliente",
      "has_allowed_location": true,
      "total_count": 231
    },
    {
      "id": 66363,
      "client_name": "M/S NAVIDAD",
      "client_db_ref": "MIGC1115",
      "created_date": "2020-04-04 09:39:29.849",
      "latitude": "9.100162",
      "longitude": "-79.411247",
      "activity_name": "VENTA",
      "total": "21.12",
      "motive_text": null,
      "has_allowed_location": true,
      "total_count": 231
    },
    {
      "id": 30934,
      "client_name": "M/S MADRUGADOR",
      "client_db_ref": "MG005540",
      "created_date": "2020-04-04 09:39:53.914",
      "latitude": "9.104598",
      "longitude": "-79.412509",
      "activity_name": "NO VENTA",
      "total": null,
      "motive_text": "Suficiente inventario",
      "has_allowed_location": true,
      "total_count": 231
    },
    {
      "id": 66368,
      "client_name": "ABARROTERIA EUCLIDES VEGA",
      "client_db_ref": "MIGC0361",
      "created_date": "2020-04-04 09:41:17.023",
      "latitude": "9.09421",
      "longitude": "-79.411011",
      "activity_name": "VENTA",
      "total": "50.32515214",
      "motive_text": null,
      "has_allowed_location": true,
      "total_count": 231
    },
    {
      "id": 30950,
      "client_name": "ABARROTERIA Y CARNICERIA Y BODEGA ZAYRA (AL CONTADO)",
      "client_db_ref": "C00000000009600",
      "created_date": "2020-04-04 09:44:35.896",
      "latitude": "9.094336",
      "longitude": "-79.410629",
      "activity_name": "NO VENTA",
      "total": null,
      "motive_text": "Ubicación de cliente",
      "has_allowed_location": true,
      "total_count": 231
    },
    {
      "id": 30978,
      "client_name": "ABARROTERIA MARIA",
      "client_db_ref": "MIGC0458",
      "created_date": "2020-04-04 09:52:40.336",
      "latitude": "9.100092",
      "longitude": "-79.406889",
      "activity_name": "NO VENTA",
      "total": null,
      "motive_text": "Suficiente inventario",
      "has_allowed_location": true,
      "total_count": 231
    },
    {
      "id": 66375,
      "client_name": "M/S NAVIDAD",
      "client_db_ref": "MIGC1115",
      "created_date": "2020-04-04 09:55:45.216",
      "latitude": "9.094336",
      "longitude": "-79.410629",
      "activity_name": "VENTA",
      "total": "34.88734572",
      "motive_text": null,
      "has_allowed_location": true,
      "total_count": 231
    },
    {
      "id": 66376,
      "client_name": "M/S ALICIA LA MARAVILLA",
      "client_db_ref": "MIGC0999",
      "created_date": "2020-04-04 09:56:02.199",
      "latitude": "9.100092",
      "longitude": "-79.406889",
      "activity_name": "VENTA",
      "total": "81.34",
      "motive_text": null,
      "has_allowed_location": true,
      "total_count": 231
    },
    {
      "id": 31021,
      "client_name": "CASA MAMA MERCEDES",
      "client_db_ref": "MG005830",
      "created_date": "2020-04-04 09:58:59.616",
      "latitude": "9.100092",
      "longitude": "-79.406889",
      "activity_name": "NO VENTA",
      "total": null,
      "motive_text": "Suficiente inventario",
      "has_allowed_location": true,
      "total_count": 231
    },
    {
      "id": 31044,
      "client_name": "M/S TERCERA Y CUARTA ETAPA",
      "client_db_ref": "MIGC1146",
      "created_date": "2020-04-04 10:02:57.865",
      "latitude": "9.102402",
      "longitude": "-79.40739",
      "activity_name": "NO VENTA",
      "total": null,
      "motive_text": "Suficiente inventario",
      "has_allowed_location": true,
      "total_count": 231
    },
    {
      "id": 66394,
      "client_name": "M/S BRISA FRESCAS",
      "client_db_ref": "MIGC1015",
      "created_date": "2020-04-04 10:11:11.697",
      "latitude": "9.102402",
      "longitude": "-79.40739",
      "activity_name": "VENTA",
      "total": "35.88",
      "motive_text": null,
      "has_allowed_location": true,
      "total_count": 231
    },
    {
      "id": 31563,
      "client_name": "M/S KOKO",
      "client_db_ref": "MG005820",
      "created_date": "2020-04-06 07:27:02.749",
      "latitude": "9.078584",
      "longitude": "-79.368956",
      "activity_name": "NO VENTA",
      "total": null,
      "motive_text": "Ubicación de cliente",
      "has_allowed_location": true,
      "total_count": 231
    },
    {
      "id": 31571,
      "client_name": "ABARROTERIA Y CARNICERIA SEREMYS (AL CONTADO)",
      "client_db_ref": "MIGC1619",
      "created_date": "2020-04-06 07:29:15.053",
      "latitude": "9.078584",
      "longitude": "-79.368956",
      "activity_name": "NO VENTA",
      "total": null,
      "motive_text": "Ubicación de cliente",
      "has_allowed_location": true,
      "total_count": 231
    },
    {
      "id": 31578,
      "client_name": "EL NUEVO INTENTO (AL CONTADO) (ANA. M. DELGADO CORTEZ)",
      "client_db_ref": "C00000000009633",
      "created_date": "2020-04-06 07:30:22.185",
      "latitude": "9.076634",
      "longitude": "-79.368135",
      "activity_name": "NO VENTA",
      "total": null,
      "motive_text": "Ubicación de cliente",
      "has_allowed_location": true,
      "total_count": 231
    },
    {
      "id": 31593,
      "client_name": "ABARROTERIA ALTOS DEL ESTE",
      "client_db_ref": "MIGC0255",
      "created_date": "2020-04-06 07:34:03.554",
      "latitude": "9.07663",
      "longitude": "-79.368127",
      "activity_name": "NO VENTA",
      "total": null,
      "motive_text": "Ubicación de cliente",
      "has_allowed_location": true,
      "total_count": 231
    },
    {
      "id": 31598,
      "client_name": "S/M 288",
      "client_db_ref": "MG013941",
      "created_date": "2020-04-06 07:35:01.915",
      "latitude": "9.07893",
      "longitude": "-79.367336",
      "activity_name": "NO VENTA",
      "total": null,
      "motive_text": "Ubicación de cliente",
      "has_allowed_location": true,
      "total_count": 231
    },
    {
      "id": 31685,
      "client_name": "ABARROTERIA NEDELKA",
      "client_db_ref": "MIGC0480",
      "created_date": "2020-04-06 07:59:41.88",
      "latitude": "9.090194",
      "longitude": "-79.359728",
      "activity_name": "NO VENTA",
      "total": null,
      "motive_text": "Ubicación de cliente",
      "has_allowed_location": true,
      "total_count": 231
    },
    {
      "id": 31762,
      "client_name": "SUPER MERCADO Y PANADERIA SANT",
      "client_db_ref": "C00000000003922",
      "created_date": "2020-04-06 08:14:48.769",
      "latitude": "9.07475",
      "longitude": "-79.353871",
      "activity_name": "NO VENTA",
      "total": null,
      "motive_text": "Ubicación de cliente",
      "has_allowed_location": true,
      "total_count": 231
    },
    {
      "id": 66552,
      "client_name": "ABARROTERIA NEDELKA",
      "client_db_ref": "MIGC0480",
      "created_date": "2020-04-06 08:16:46.262",
      "latitude": "9.090194",
      "longitude": "-79.359728",
      "activity_name": "VENTA",
      "total": "37.158368",
      "motive_text": null,
      "has_allowed_location": true,
      "total_count": 231
    },
    {
      "id": 66559,
      "client_name": "ABARROTERIA URENA",
      "client_db_ref": "MIGC0553",
      "created_date": "2020-04-06 08:22:52.294",
      "latitude": "9.090194",
      "longitude": "-79.359728",
      "activity_name": "VENTA",
      "total": "61.520064",
      "motive_text": null,
      "has_allowed_location": true,
      "total_count": 231
    },
    {
      "id": 66569,
      "client_name": "M/S JULIAN (AL CONTADO)",
      "client_db_ref": "MG013935",
      "created_date": "2020-04-06 08:33:51.949",
      "latitude": "9.090194",
      "longitude": "-79.359728",
      "activity_name": "VENTA",
      "total": "20.33429",
      "motive_text": null,
      "has_allowed_location": true,
      "total_count": 231
    },
    {
      "id": 66583,
      "client_name": "ABARROTERIA VILLA LUCHIN",
      "client_db_ref": "MIGC0560",
      "created_date": "2020-04-06 08:45:32.73",
      "latitude": "9.083875",
      "longitude": "-79.36409",
      "activity_name": "VENTA",
      "total": "26.52336",
      "motive_text": null,
      "has_allowed_location": true,
      "total_count": 231
    },
    {
      "id": 66592,
      "client_name": "ABARROTERIA CIANCA",
      "client_db_ref": "MIGC0306",
      "created_date": "2020-04-06 08:56:16.794",
      "latitude": "9.082296",
      "longitude": "-79.360829",
      "activity_name": "VENTA",
      "total": "105.996672",
      "motive_text": null,
      "has_allowed_location": true,
      "total_count": 231
    },
    {
      "id": 66593,
      "client_name": "SUPER MERCADO Y PANADERIA SANT",
      "client_db_ref": "C00000000003922",
      "created_date": "2020-04-06 08:56:25.043",
      "latitude": "9.074726",
      "longitude": "-79.353932",
      "activity_name": "VENTA",
      "total": "20.97",
      "motive_text": null,
      "has_allowed_location": true,
      "total_count": 231
    },
    {
      "id": 32012,
      "client_name": "MINI PRICE (AL CONTADO)",
      "client_db_ref": "C00000000005799",
      "created_date": "2020-04-06 08:56:43.196",
      "latitude": "9.075113",
      "longitude": "-79.356236",
      "activity_name": "NO VENTA",
      "total": null,
      "motive_text": "Ubicación de cliente",
      "has_allowed_location": true,
      "total_count": 231
    },
    {
      "id": 32035,
      "client_name": "M/S KOKO",
      "client_db_ref": "MG005820",
      "created_date": "2020-04-06 09:00:35.115",
      "latitude": "9.082287",
      "longitude": "-79.360841",
      "activity_name": "NO VENTA",
      "total": null,
      "motive_text": "Suficiente inventario",
      "has_allowed_location": true,
      "total_count": 231
    },
    {
      "id": 66602,
      "client_name": "MINI PRICE (AL CONTADO)",
      "client_db_ref": "C00000000005799",
      "created_date": "2020-04-06 09:03:04.63",
      "latitude": "9.075113",
      "longitude": "-79.356236",
      "activity_name": "VENTA",
      "total": "134.88",
      "motive_text": null,
      "has_allowed_location": true,
      "total_count": 231
    },
    {
      "id": 32076,
      "client_name": "M/S GIRASOL",
      "client_db_ref": "MG004330",
      "created_date": "2020-04-06 09:09:20.98",
      "latitude": "9.07499",
      "longitude": "-79.360539",
      "activity_name": "NO VENTA",
      "total": null,
      "motive_text": "Ubicación de cliente",
      "has_allowed_location": true,
      "total_count": 231
    },
    {
      "id": 32093,
      "client_name": "M/S LUCHO",
      "client_db_ref": "MG004414",
      "created_date": "2020-04-06 09:16:23.32",
      "latitude": "9.068887",
      "longitude": "-79.362707",
      "activity_name": "NO VENTA",
      "total": null,
      "motive_text": "Ubicación de cliente",
      "has_allowed_location": true,
      "total_count": 231
    },
    {
      "id": 66639,
      "client_name": "M/S LUCHO",
      "client_db_ref": "MG004414",
      "created_date": "2020-04-06 09:33:52.022",
      "latitude": "9.068887",
      "longitude": "-79.362707",
      "activity_name": "VENTA",
      "total": "29.07189144",
      "motive_text": null,
      "has_allowed_location": true,
      "total_count": 231
    },
    {
      "id": 32167,
      "client_name": "M/ BUENA FE (CONTADO)",
      "client_db_ref": "C00000000006426",
      "created_date": "2020-04-06 09:38:19.472",
      "latitude": "9.068898",
      "longitude": "-79.362738",
      "activity_name": "NO VENTA",
      "total": null,
      "motive_text": "Ubicación de cliente",
      "has_allowed_location": true,
      "total_count": 231
    },
    {
      "id": 32191,
      "client_name": "M/S EL COLOSO",
      "client_db_ref": "MG013706",
      "created_date": "2020-04-06 09:44:25.994",
      "latitude": "9.068947",
      "longitude": "-79.365348",
      "activity_name": "NO VENTA",
      "total": null,
      "motive_text": "Ubicación de cliente",
      "has_allowed_location": true,
      "total_count": 231
    },
    {
      "id": 32219,
      "client_name": "ABARROTERIA GUIMAR",
      "client_db_ref": "MIGC0380",
      "created_date": "2020-04-06 09:50:22.69",
      "latitude": "9.078719",
      "longitude": "-79.359836",
      "activity_name": "NO VENTA",
      "total": null,
      "motive_text": "Ubicación de cliente",
      "has_allowed_location": true,
      "total_count": 231
    },
    {
      "id": 66661,
      "client_name": "ABARROTERIA GUIMAR",
      "client_db_ref": "MIGC0380",
      "created_date": "2020-04-06 09:51:34.33",
      "latitude": "9.078719",
      "longitude": "-79.359836",
      "activity_name": "VENTA",
      "total": "53.54648716",
      "motive_text": null,
      "has_allowed_location": true,
      "total_count": 231
    },
    {
      "id": 32239,
      "client_name": "M/S MARKET ANGEL (AL CONTADO)",
      "client_db_ref": "C00000000007288",
      "created_date": "2020-04-06 09:57:06.726",
      "latitude": "9.079298",
      "longitude": "-79.358305",
      "activity_name": "NO VENTA",
      "total": null,
      "motive_text": "Ubicación de cliente",
      "has_allowed_location": true,
      "total_count": 231
    },
    {
      "id": 32248,
      "client_name": "M/S VERAGUAS (LA SIESTA)",
      "client_db_ref": "MG003498",
      "created_date": "2020-04-06 10:00:37.146",
      "latitude": "9.080324",
      "longitude": "-79.354875",
      "activity_name": "NO VENTA",
      "total": null,
      "motive_text": "Ubicación de cliente",
      "has_allowed_location": true,
      "total_count": 231
    },
    {
      "id": 32255,
      "client_name": "MINI SUPER BLESSING JULIO (AL",
      "client_db_ref": "C00000000004594",
      "created_date": "2020-04-06 10:03:32.731",
      "latitude": "9.079552",
      "longitude": "-79.356588",
      "activity_name": "NO VENTA",
      "total": null,
      "motive_text": "Ubicación de cliente",
      "has_allowed_location": true,
      "total_count": 231
    },
    {
      "id": 66675,
      "client_name": "MINI SUPER BLESSING JULIO (AL",
      "client_db_ref": "C00000000004594",
      "created_date": "2020-04-06 10:05:57.075",
      "latitude": "9.082876",
      "longitude": "-79.353772",
      "activity_name": "VENTA",
      "total": "34.95",
      "motive_text": null,
      "has_allowed_location": true,
      "total_count": 231
    },
    {
      "id": 32278,
      "client_name": "M/S COSTA SUR",
      "client_db_ref": "MG003621",
      "created_date": "2020-04-06 10:08:04.677",
      "latitude": "9.082295",
      "longitude": "-79.354518",
      "activity_name": "NO VENTA",
      "total": null,
      "motive_text": "Ubicación de cliente",
      "has_allowed_location": true,
      "total_count": 231
    },
    {
      "id": 32294,
      "client_name": "M/S MULTICARNES",
      "client_db_ref": "MG003693",
      "created_date": "2020-04-06 10:12:40.498",
      "latitude": "9.080662",
      "longitude": "-79.354392",
      "activity_name": "NO VENTA",
      "total": null,
      "motive_text": "Ubicación de cliente",
      "has_allowed_location": true,
      "total_count": 231
    },
    {
      "id": 66686,
      "client_name": "M/S MULTICARNES",
      "client_db_ref": "MG003693",
      "created_date": "2020-04-06 10:14:25.106",
      "latitude": "9.079951",
      "longitude": "-79.356483",
      "activity_name": "VENTA",
      "total": "48.5994",
      "motive_text": null,
      "has_allowed_location": true,
      "total_count": 231
    },
    {
      "id": 32339,
      "client_name": "M/S CARNE MARKET (AL CONTADO)",
      "client_db_ref": "MG013930",
      "created_date": "2020-04-06 10:23:41",
      "latitude": "9.080022",
      "longitude": "-79.356424",
      "activity_name": "NO VENTA",
      "total": null,
      "motive_text": "Ubicación de cliente",
      "has_allowed_location": true,
      "total_count": 231
    },
    {
      "id": 32340,
      "client_name": "M/S CARNE MARKET (AL CONTADO)",
      "client_db_ref": "MG013930",
      "created_date": "2020-04-06 10:23:41.371",
      "latitude": "9.080022",
      "longitude": "-79.356424",
      "activity_name": "NO VENTA",
      "total": null,
      "motive_text": "Ubicación de cliente",
      "has_allowed_location": true,
      "total_count": 231
    },
    {
      "id": 32341,
      "client_name": "M/S CARNE MARKET (AL CONTADO)",
      "client_db_ref": "MG013930",
      "created_date": "2020-04-06 10:23:41.409",
      "latitude": "9.080022",
      "longitude": "-79.356424",
      "activity_name": "NO VENTA",
      "total": null,
      "motive_text": "Ubicación de cliente",
      "has_allowed_location": true,
      "total_count": 231
    },
    {
      "id": 32342,
      "client_name": "M/S CARNE MARKET (AL CONTADO)",
      "client_db_ref": "MG013930",
      "created_date": "2020-04-06 10:23:41.891",
      "latitude": "9.080022",
      "longitude": "-79.356424",
      "activity_name": "NO VENTA",
      "total": null,
      "motive_text": "Ubicación de cliente",
      "has_allowed_location": true,
      "total_count": 231
    },
    {
      "id": 32343,
      "client_name": "M/S CARNE MARKET (AL CONTADO)",
      "client_db_ref": "MG013930",
      "created_date": "2020-04-06 10:23:42.185",
      "latitude": "9.080022",
      "longitude": "-79.356424",
      "activity_name": "NO VENTA",
      "total": null,
      "motive_text": "Ubicación de cliente",
      "has_allowed_location": true,
      "total_count": 231
    }
  ]
}
